{
  "stores": [
    {
      "addressLine1": "4159 N. Holland-Sylvania Rd.",
      "addressLine2": "Suite 103",
      "phone": "8667208486",
      "city": "Toledo",
      "hours": "9:00 AM to 5:00 PM Monday thru Friday",
      "latitude": "41.693737",
      "longitude": "-83.688107",
      "postalCode": "43623",
      "state": "OH",
      "storeName": "Vito\\u0027s Franchising Office"
    },
    {
      "addressLine1": "2129 N. Reynolds Rd.",
      "addressLine2": "Near Bancroft",
      "phone": "4195368486",
      "city": "Toledo",
      "hours": "10:30 AM to Midnight EVERYDAY",
      "latitude": "41.661177",
      "longitude": "-83.667696",
      "postalCode": "43615",
      "state": "OH",
      "storeName": "Vito\\u0027s Pizza and Subs"
    },
    {
      "addressLine1": "104 East Union St.",
      "addressLine2": "In Walbridge",
      "phone": "4196668486",
      "city": "Walbridge",
      "hours": "10:30 AM to Midnight Friday, Saturday & Sunday,<br>2:30 PM to Midnight Monday thru Thursday",
      "latitude": "41.587678",
      "longitude": "-83.492859",
      "postalCode": "43465",
      "state": "OH",
      "storeName": "Vito\\u0027s Pizza and Subs"
    },
    {
      "addressLine1": "7060 Sylvania Ave.",
      "addressLine2": "Inside the Tam-O-Shanter",
      "phone": "4195178486",
      "city": "Sylvania",
      "hours": "10:30 AM to Midnight Friday, Saturday & Sunday,<br>2:30 PM to Midnight Monday thru Thursday",
      "latitude": "41.689159",
      "longitude": "-83.713412",
      "postalCode": "43560",
      "state": "OH",
      "storeName": "Vito\\u0027s Pizza and Subs"
    },
    {
      "addressLine1": "4035 Navarre Ave.",
      "addressLine2": "Past Wal-Mart",
      "phone": "4196978486",
      "city": "Oregon",
      "hours": "10:30 AM to Midnight EVERYDAY",
      "latitude": "41.637262",
      "longitude": "-83.451386",
      "postalCode": "43616",
      "state": "OH",
      "storeName": "Vito\\u0027s Pizza and Subs"
    },
    {
      "addressLine1": "315 South Detroit Ave.",
      "addressLine2": "",
      "phone": "4193858486",
      "city": "Toledo",
      "hours": "10:30 AM to Midnight EVERYDAY",
      "latitude": "41.632732",
      "longitude": "-83.590289",
      "postalCode": "43609",
      "state": "OH",
      "storeName": "Vito\\u0027s Pizza and Subs"
    },
    {
      "addressLine1": "4317 Heatherdowns Blvd.",
      "addressLine2": "At Eastgate",
      "phone": "4193898486",
      "city": "Toledo",
      "hours": "10:30 AM to Midnight EVERYDAY",
      "latitude": "41.594169",
      "longitude": "-83.644167",
      "postalCode": "43614",
      "state": "OH",
      "storeName": "Vito\\u0027s Pizza and Subs"
    },
    {
      "addressLine1": "4804 Lewis Ave.",
      "addressLine2": "<b>IN OHIO</b>",
      "phone": "4194788486",
      "city": "Toledo",
      "hours": "10:30 AM to Midnight EVERYDAY",
      "latitude": "41.70406",
      "longitude": "-83.565747",
      "postalCode": "43612",
      "state": "OH",
      "storeName": "Vito\\u0027s Pizza and Subs"
    },
    {
      "addressLine1": "5412 Monroe St.",
      "addressLine2": "Laskey at Monroe",
      "phone": "4197256666",
      "city": "Toledo",
      "hours": "10:30 AM to Midnight Friday, Saturday & Sunday,<br>2:30 PM to Midnight Monday thru Thursday",
      "latitude": "41.704998",
      "longitude": "-83.661596",
      "postalCode": "43623",
      "state": "OH",
      "storeName": "Vito\\u0027s Pizza and Subs"
    },
    {
      "addressLine1": "118 W. South Boundary St.",
      "addressLine2": "",
      "phone": "4198723278",
      "city": "Perrysburg",
      "hours": "10:30 AM to Midnight EVERYDAY",
      "latitude": "41.545162",
      "longitude": "-83.621614",
      "postalCode": "43551",
      "state": "OH",
      "storeName": "Vito\\u0027s Pizza and Subs"
    },
    {
      "addressLine1": "847 S. McCord Rd.",
      "addressLine2": "Near Angola",
      "phone": "4198658486",
      "city": "Holland",
      "hours": "10:30 AM to Midnight EVERYDAY",
      "latitude": "41.625903",
      "longitude": "-83.703",
      "postalCode": "43528",
      "state": "OH",
      "storeName": "Vito\\u0027s Pizza and Subs"
    },
    {
      "addressLine1": "524 Main St.",
      "addressLine2": "East Toledo",
      "phone": "4196933333",
      "city": "Toledo",
      "hours": "10:30 AM to Midnight EVERYDAY",
      "latitude": "41.645297",
      "longitude": "-83.519956",
      "postalCode": "43605",
      "state": "OH",
      "storeName": "Vito\\u0027s Pizza and Subs"
    },
    {
      "addressLine1": "4235 Douglas Rd.",
      "addressLine2": "",
      "phone": "4194751212",
      "city": "Toledo",
      "hours": "10:30 AM to Midnight EVERYDAY",
      "latitude": "41.696157",
      "longitude": "-83.603735",
      "postalCode": "43613",
      "state": "OH",
      "storeName": "Vito\\u0027s Pizza and Subs"
    },
    {
      "addressLine1": "3392 Lagrange St.",
      "addressLine2": "",
      "phone": "4192418486",
      "city": "Toledo",
      "hours": "10:30 AM to Midnight EVERYDAY",
      "latitude": "41.684598",
      "longitude": "-83.542784",
      "postalCode": "43608",
      "state": "OH",
      "storeName": "Vito\\u0027s Pizza and Subs"
    },
    {
      "addressLine1": "1500 N. Main St.",
      "addressLine2": "Next to Family Video",
      "phone": "4194228486",
      "city": "Findlay",
      "hours": "10:30 AM to Midnight EVERYDAY",
      "latitude": "41.059291",
      "longitude": "-83.650589",
      "postalCode": "45840",
      "state": "OH",
      "storeName": "Vito\\u0027s Pizza and Subs"
    },
    {
      "addressLine1": "5145 Summit St.",
      "addressLine2": "Point Place",
      "phone": "4197295353",
      "city": "Toledo",
      "hours": "10:30 AM to Midnight Friday & Saturday,<br>10:30 AM to 11:00 PM Sunday,<br>2:30 PM to 11:00 PM Monday thru Thursday",
      "latitude": "41.715536",
      "longitude": "-83.479033",
      "postalCode": "43611",
      "state": "OH",
      "storeName": "Vito\\u0027s Pizza and Subs"
    },
    {
      "addressLine1": "3130 W. Central Ave.",
      "addressLine2": "Across From Cricket West<br>Accepts the Rocket Card.",
      "phone": "4195371000",
      "city": "Toledo",
      "hours": "10:30 AM to Midnight EVERYDAY",
      "latitude": "41.677436",
      "longitude": "-83.619949",
      "postalCode": "43606",
      "state": "OH",
      "storeName": "Vito\\u0027s Pizza and Subs"
    },
    {
      "addressLine1": "7321 Lewis #G",
      "addressLine2": "<b>IN MICHIGAN</b>",
      "phone": "7348508486",
      "city": "Temperance",
      "hours": "10:30 AM to Midnight Friday, Saturday & Sunday,<br>2:30 PM to Midnight Monday thru Thursday",
      "latitude": "41.748072",
      "longitude": "-83.568494",
      "postalCode": "48182",
      "state": "MI",
      "storeName": "Vito\\u0027s Pizza and Subs"
    },
    {
      "addressLine1": "6533 East State Blvd",
      "addressLine2": "<b>Now Open!</b>",
      "phone": "2604858486",
      "city": "Ft. Wayne",
      "hours": "10:30 AM to Midnight EVERYDAY",
      "latitude": "41.102458",
      "longitude": "-85.057176",
      "postalCode": "46815",
      "state": "IN",
      "storeName": "Vito\\u0027s Pizza and Subs"
    },
    {
      "addressLine1": "226 N. Telegraph",
      "addressLine2": "<b>Now Open!</b>",
      "phone": "7342414444",
      "city": "Monroe",
      "hours": "10:30 AM to Midnight Friday, Saturday & Sunday,<br>2:30 PM to Midnight Monday thru Thursday",
      "latitude": "41.920357",
      "longitude": "-83.416476",
      "postalCode": "48162",
      "state": "MI",
      "storeName": "Vito\\u0027s Pizza and Subs"
    },
    {
      "addressLine1": "140 E. Wooster",
      "addressLine2": "<font color=",
      "phone": "4193528486",
      "city": "Bowling Green",
      "hours": "10:30 AM to 4:00 AM Thursday thru Saturday,<br>10:30 AM to Midnight Sunday,<br>2:30 PM to Midnight Monday thru Wednesday",
      "latitude": "41.374801",
      "longitude": "-83.649577",
      "postalCode": "43402",
      "state": "OH",
      "storeName": "Vito\\u0027s Pizza and Subs"
    }
  ]
}